{
  "type": "FeatureCollection",
  "features": [
{
      "type": "Feature",
      "properties": {
        "kind": "beacon",
        "name": "AA1AA"
      },
      "geometry": {
        "coordinates": [
           36.65,
           42.4611
          ],
          "type": "Point"
      }
    },{
      "type": "Feature",
      "properties": {
        "kind": "beacon",
        "name": "AA2AA"
      },
      "geometry": {
        "coordinates": [
           37.3856,
           42.3356
          ],
          "type": "Point"
      }
    },{
      "type": "Feature",
      "properties": {
        "kind": "beacon",
        "name": "AA3AA"
      },
      "geometry": {
        "coordinates": [
           32.1775,
           39.4633
          ],
          "type": "Point"
      }
    },{
      "type": "Feature",
      "properties": {
        "kind": "beacon",
        "name": "AA4AA"
      },
      "geometry": {
        "coordinates": [
           31.3656,
           38.2031
          ],
          "type": "Point"
      }
    },{
      "type": "Feature",
      "properties": {
        "kind": "beacon",
        "name": "ABACO"
      },
      "geometry": {
        "coordinates": [
           28.7547,
           40.9806
          ],
          "type": "Point"
      }
    },{
      "type": "Feature",
      "properties": {
        "kind": "beacon",
        "name": "ABBAS"
      },
      "geometry": {
        "coordinates": [
           37.725,
           33.4333
          ],
          "type": "Point"
      }
    },{
      "type": "Feature",
      "properties": {
        "kind": "beacon",
        "name": "ABDIK"
      },
      "geometry": {
        "coordinates": [
           41.9553,
           37.6883
          ],
          "type": "Point"
      }
    },{
      "type": "Feature",
      "properties": {
        "kind": "beacon",
        "name": "ABELA"
      },
      "geometry": {
        "coordinates": [
           42.6003,
           44.1914
          ],
          "type": "Point"
      }
    },{
      "type": "Feature",
      "properties": {
        "kind": "beacon",
        "name": "ABILO"
      },
      "geometry": {
        "coordinates": [
           30.0,
           34.3233
          ],
          "type": "Point"
      }
    },{
      "type": "Feature",
      "properties": {
        "kind": "beacon",
        "name": "ABISI"
      },
      "geometry": {
        "coordinates": [
           31.9525,
           40.3628
          ],
          "type": "Point"
      }
    },{
      "type": "Feature",
      "properties": {
        "kind": "beacon",
        "name": "ABKAL"
      },
      "geometry": {
        "coordinates": [
           41.5319,
           38.0194
          ],
          "type": "Point"
      }
    },{
      "type": "Feature",
      "properties": {
        "kind": "beacon",
        "name": "ABKEV"
      },
      "geometry": {
        "coordinates": [
           32.0483,
           42.5839
          ],
          "type": "Point"
      }
    },{
      "type": "Feature",
      "properties": {
        "kind": "beacon",
        "name": "ABLON"
      },
      "geometry": {
        "coordinates": [
           23.7356,
           38.1694
          ],
          "type": "Point"
      }
    },{
      "type": "Feature",
      "properties": {
        "kind": "beacon",
        "name": "ABNIN"
      },
      "geometry": {
        "coordinates": [
           28.2483,
           40.7819
          ],
          "type": "Point"
      }
    },{
      "type": "Feature",
      "properties": {
        "kind": "beacon",
        "name": "ABORA"
      },
      "geometry": {
        "coordinates": [
           26.3408,
           44.5522
          ],
          "type": "Point"
      }
    },{
      "type": "Feature",
      "properties": {
        "kind": "beacon",
        "name": "ABRAN"
      },
      "geometry": {
        "coordinates": [
           33.1222,
           43.6172
          ],
          "type": "Point"
      }
    },{
      "type": "Feature",
      "properties": {
        "kind": "beacon",
        "name": "ABROD"
      },
      "geometry": {
        "coordinates": [
           49.5069,
           40.6989
          ],
          "type": "Point"
      }
    },{
      "type": "Feature",
      "properties": {
        "kind": "beacon",
        "name": "ABRUT"
      },
      "geometry": {
        "coordinates": [
           25.1831,
           44.4503
          ],
          "type": "Point"
      }
    },{
      "type": "Feature",
      "properties": {
        "kind": "beacon",
        "name": "ABSAX"
      },
      "geometry": {
        "coordinates": [
           32.5836,
           42.3336
          ],
          "type": "Point"
      }
    },{
      "type": "Feature",
      "properties": {
        "kind": "beacon",
        "name": "ABTEK"
      },
      "geometry": {
        "coordinates": [
           49.3056,
           41.8108
          ],
          "type": "Point"
      }
    },{
      "type": "Feature",
      "properties": {
        "kind": "beacon",
        "name": "ABTER"
      },
      "geometry": {
        "coordinates": [
           25.8417,
           46.2531
          ],
          "type": "Point"
      }
    },{
      "type": "Feature",
      "properties": {
        "kind": "beacon",
        "name": "ABTON"
      },
      "geometry": {
        "coordinates": [
           46.7714,
           46.0206
          ],
          "type": "Point"
      }
    },{
      "type": "Feature",
      "properties": {
        "kind": "beacon",
        "name": "ABVEX"
      },
      "geometry": {
        "coordinates": [
           40.6578,
           40.8942
          ],
          "type": "Point"
      }
    },{
      "type": "Feature",
      "properties": {
        "kind": "beacon",
        "name": "AC039"
      },
      "geometry": {
        "coordinates": [
           32.2217,
           40.3022
          ],
          "type": "Point"
      }
    },{
      "type": "Feature",
      "properties": {
        "kind": "beacon",
        "name": "AC040"
      },
      "geometry": {
        "coordinates": [
           32.4567,
           40.3808
          ],
          "type": "Point"
      }
    },{
      "type": "Feature",
      "properties": {
        "kind": "beacon",
        "name": "AC046"
      },
      "geometry": {
        "coordinates": [
           32.8639,
           40.6144
          ],
          "type": "Point"
      }
    },{
      "type": "Feature",
      "properties": {
        "kind": "beacon",
        "name": "AC048"
      },
      "geometry": {
        "coordinates": [
           32.9794,
           39.6208
          ],
          "type": "Point"
      }
    },{
      "type": "Feature",
      "properties": {
        "kind": "beacon",
        "name": "AC049"
      },
      "geometry": {
        "coordinates": [
           33.1,
           39.7972
          ],
          "type": "Point"
      }
    },{
      "type": "Feature",
      "properties": {
        "kind": "beacon",
        "name": "AC050"
      },
      "geometry": {
        "coordinates": [
           33.5283,
           39.7747
          ],
          "type": "Point"
      }
    },{
      "type": "Feature",
      "properties": {
        "kind": "beacon",
        "name": "AC051"
      },
      "geometry": {
        "coordinates": [
           33.6436,
           40.1867
          ],
          "type": "Point"
      }
    },{
      "type": "Feature",
      "properties": {
        "kind": "beacon",
        "name": "AC052"
      },
      "geometry": {
        "coordinates": [
           33.5144,
           40.0525
          ],
          "type": "Point"
      }
    },{
      "type": "Feature",
      "properties": {
        "kind": "beacon",
        "name": "AC053"
      },
      "geometry": {
        "coordinates": [
           33.4372,
           39.9719
          ],
          "type": "Point"
      }
    },{
      "type": "Feature",
      "properties": {
        "kind": "beacon",
        "name": "AC054"
      },
      "geometry": {
        "coordinates": [
           33.3475,
           39.8778
          ],
          "type": "Point"
      }
    },{
      "type": "Feature",
      "properties": {
        "kind": "beacon",
        "name": "AC055"
      },
      "geometry": {
        "coordinates": [
           33.0692,
           40.035
          ],
          "type": "Point"
      }
    },{
      "type": "Feature",
      "properties": {
        "kind": "beacon",
        "name": "AC056"
      },
      "geometry": {
        "coordinates": [
           33.1592,
           40.1292
          ],
          "type": "Point"
      }
    },{
      "type": "Feature",
      "properties": {
        "kind": "beacon",
        "name": "AC057"
      },
      "geometry": {
        "coordinates": [
           33.2364,
           40.2097
          ],
          "type": "Point"
      }
    },{
      "type": "Feature",
      "properties": {
        "kind": "beacon",
        "name": "AC058"
      },
      "geometry": {
        "coordinates": [
           33.3139,
           40.2903
          ],
          "type": "Point"
      }
    },{
      "type": "Feature",
      "properties": {
        "kind": "beacon",
        "name": "AC059"
      },
      "geometry": {
        "coordinates": [
           33.3917,
           40.3708
          ],
          "type": "Point"
      }
    },{
      "type": "Feature",
      "properties": {
        "kind": "beacon",
        "name": "AC062"
      },
      "geometry": {
        "coordinates": [
           32.4219,
           40.3356
          ],
          "type": "Point"
      }
    },{
      "type": "Feature",
      "properties": {
        "kind": "beacon",
        "name": "AC063"
      },
      "geometry": {
        "coordinates": [
           32.5286,
           40.4447
          ],
          "type": "Point"
      }
    },{
      "type": "Feature",
      "properties": {
        "kind": "beacon",
        "name": "AC064"
      },
      "geometry": {
        "coordinates": [
           32.6522,
           40.3761
          ],
          "type": "Point"
      }
    },{
      "type": "Feature",
      "properties": {
        "kind": "beacon",
        "name": "AC065"
      },
      "geometry": {
        "coordinates": [
           32.4781,
           40.1922
          ],
          "type": "Point"
      }
    },{
      "type": "Feature",
      "properties": {
        "kind": "beacon",
        "name": "AC066"
      },
      "geometry": {
        "coordinates": [
           32.6011,
           40.1233
          ],
          "type": "Point"
      }
    },{
      "type": "Feature",
      "properties": {
        "kind": "beacon",
        "name": "AC067"
      },
      "geometry": {
        "coordinates": [
           32.6778,
           40.2044
          ],
          "type": "Point"
      }
    },{
      "type": "Feature",
      "properties": {
        "kind": "beacon",
        "name": "AC069"
      },
      "geometry": {
        "coordinates": [
           32.8781,
           40.2169
          ],
          "type": "Point"
      }
    },{
      "type": "Feature",
      "properties": {
        "kind": "beacon",
        "name": "AC070"
      },
      "geometry": {
        "coordinates": [
           32.8011,
           40.1361
          ],
          "type": "Point"
      }
    },{
      "type": "Feature",
      "properties": {
        "kind": "beacon",
        "name": "AC076"
      },
      "geometry": {
        "coordinates": [
           32.4219,
           39.9328
          ],
          "type": "Point"
      }
    },{
      "type": "Feature",
      "properties": {
        "kind": "beacon",
        "name": "AC080"
      },
      "geometry": {
        "coordinates": [
           33.6344,
           40.1864
          ],
          "type": "Point"
      }
    },{
      "type": "Feature",
      "properties": {
        "kind": "beacon",
        "name": "AC081"
      },
      "geometry": {
        "coordinates": [
           33.4258,
           39.9703
          ],
          "type": "Point"
      }
    },{
      "type": "Feature",
      "properties": {
        "kind": "beacon",
        "name": "AC083"
      },
      "geometry": {
        "coordinates": [
           33.3872,
           39.93
          ],
          "type": "Point"
      }
    },{
      "type": "Feature",
      "properties": {
        "kind": "beacon",
        "name": "AC084"
      },
      "geometry": {
        "coordinates": [
           33.31,
           39.8492
          ],
          "type": "Point"
      }
    },{
      "type": "Feature",
      "properties": {
        "kind": "beacon",
        "name": "AC085"
      },
      "geometry": {
        "coordinates": [
           33.2594,
           39.5711
          ],
          "type": "Point"
      }
    },{
      "type": "Feature",
      "properties": {
        "kind": "beacon",
        "name": "AC086"
      },
      "geometry": {
        "coordinates": [
           33.375,
           39.6925
          ],
          "type": "Point"
      }
    },{
      "type": "Feature",
      "properties": {
        "kind": "beacon",
        "name": "AC087"
      },
      "geometry": {
        "coordinates": [
           33.1111,
           39.8378
          ],
          "type": "Point"
      }
    },{
      "type": "Feature",
      "properties": {
        "kind": "beacon",
        "name": "AC088"
      },
      "geometry": {
        "coordinates": [
           33.1881,
           39.9186
          ],
          "type": "Point"
      }
    },{
      "type": "Feature",
      "properties": {
        "kind": "beacon",
        "name": "AC089"
      },
      "geometry": {
        "coordinates": [
           33.265,
           39.9992
          ],
          "type": "Point"
      }
    },{
      "type": "Feature",
      "properties": {
        "kind": "beacon",
        "name": "AC090"
      },
      "geometry": {
        "coordinates": [
           33.1425,
           40.0683
          ],
          "type": "Point"
      }
    },{
      "type": "Feature",
      "properties": {
        "kind": "beacon",
        "name": "AC091"
      },
      "geometry": {
        "coordinates": [
           33.0656,
           39.9875
          ],
          "type": "Point"
      }
    },{
      "type": "Feature",
      "properties": {
        "kind": "beacon",
        "name": "AC411"
      },
      "geometry": {
        "coordinates": [
           32.8253,
           40.1778
          ],
          "type": "Point"
      }
    },{
      "type": "Feature",
      "properties": {
        "kind": "beacon",
        "name": "AC422"
      },
      "geometry": {
        "coordinates": [
           32.9022,
           40.2586
          ],
          "type": "Point"
      }
    },{
      "type": "Feature",
      "properties": {
        "kind": "beacon",
        "name": "AC433"
      },
      "geometry": {
        "coordinates": [
           32.9794,
           40.3394
          ],
          "type": "Point"
      }
    },{
      "type": "Feature",
      "properties": {
        "kind": "beacon",
        "name": "AC444"
      },
      "geometry": {
        "coordinates": [
           33.0567,
           40.4203
          ],
          "type": "Point"
      }
    },{
      "type": "Feature",
      "properties": {
        "kind": "beacon",
        "name": "AC455"
      },
      "geometry": {
        "coordinates": [
           33.1342,
           40.5008
          ],
          "type": "Point"
      }
    },{
      "type": "Feature",
      "properties": {
        "kind": "beacon",
        "name": "AC611"
      },
      "geometry": {
        "coordinates": [
           32.8792,
           40.0072
          ],
          "type": "Point"
      }
    },{
      "type": "Feature",
      "properties": {
        "kind": "beacon",
        "name": "AC612"
      },
      "geometry": {
        "coordinates": [
           32.74,
           40.0869
          ],
          "type": "Point"
      }
    },{
      "type": "Feature",
      "properties": {
        "kind": "beacon",
        "name": "AC613"
      },
      "geometry": {
        "coordinates": [
           32.5319,
           40.2053
          ],
          "type": "Point"
      }
    },{
      "type": "Feature",
      "properties": {
        "kind": "beacon",
        "name": "AC614"
      },
      "geometry": {
        "coordinates": [
           32.2867,
           40.4039
          ],
          "type": "Point"
      }
    },{
      "type": "Feature",
      "properties": {
        "kind": "beacon",
        "name": "AC615"
      },
      "geometry": {
        "coordinates": [
           32.97,
           39.7833
          ],
          "type": "Point"
      }
    },{
      "type": "Feature",
      "properties": {
        "kind": "beacon",
        "name": "AC619"
      },
      "geometry": {
        "coordinates": [
           32.81,
           39.6633
          ],
          "type": "Point"
      }
    },{
      "type": "Feature",
      "properties": {
        "kind": "beacon",
        "name": "AC630"
      },
      "geometry": {
        "coordinates": [
           32.9794,
           39.8953
          ],
          "type": "Point"
      }
    },{
      "type": "Feature",
      "properties": {
        "kind": "beacon",
        "name": "AC688"
      },
      "geometry": {
        "coordinates": [
           32.7547,
           40.2853
          ],
          "type": "Point"
      }
    },{
      "type": "Feature",
      "properties": {
        "kind": "beacon",
        "name": "AC711"
      },
      "geometry": {
        "coordinates": [
           33.1164,
           40.2464
          ],
          "type": "Point"
      }
    },{
      "type": "Feature",
      "properties": {
        "kind": "beacon",
        "name": "AC712"
      },
      "geometry": {
        "coordinates": [
           32.9975,
           40.3194
          ],
          "type": "Point"
      }
    },{
      "type": "Feature",
      "properties": {
        "kind": "beacon",
        "name": "AC713"
      },
      "geometry": {
        "coordinates": [
           32.9014,
           40.3783
          ],
          "type": "Point"
      }
    },{
      "type": "Feature",
      "properties": {
        "kind": "beacon",
        "name": "AC714"
      },
      "geometry": {
        "coordinates": [
           32.6767,
           40.5153
          ],
          "type": "Point"
      }
    },{
      "type": "Feature",
      "properties": {
        "kind": "beacon",
        "name": "AC715"
      },
      "geometry": {
        "coordinates": [
           32.6203,
           40.5497
          ],
          "type": "Point"
      }
    },{
      "type": "Feature",
      "properties": {
        "kind": "beacon",
        "name": "AC721"
      },
      "geometry": {
        "coordinates": [
           33.2006,
           40.3269
          ],
          "type": "Point"
      }
    },{
      "type": "Feature",
      "properties": {
        "kind": "beacon",
        "name": "AC722"
      },
      "geometry": {
        "coordinates": [
           33.2767,
           40.3997
          ],
          "type": "Point"
      }
    },{
      "type": "Feature",
      "properties": {
        "kind": "beacon",
        "name": "ACCUA"
      },
      "geometry": {
        "coordinates": [
           28.0314,
           41.6756
          ],
          "type": "Point"
      }
    },{
      "type": "Feature",
      "properties": {
        "kind": "beacon",
        "name": "ADA"
      },
      "geometry": {
        "coordinates": [
           35.2103,
           36.9406
          ],
          "type": "Point"
      }
    },{
      "type": "Feature",
      "properties": {
        "kind": "beacon",
        "name": "ADANO"
      },
      "geometry": {
        "coordinates": [
           45.8333,
           39.6667
          ],
          "type": "Point"
      }
    },{
      "type": "Feature",
      "properties": {
        "kind": "beacon",
        "name": "ADASU"
      },
      "geometry": {
        "coordinates": [
           31.3889,
           36.7511
          ],
          "type": "Point"
      }
    },{
      "type": "Feature",
      "properties": {
        "kind": "beacon",
        "name": "ADAXA"
      },
      "geometry": {
        "coordinates": [
           35.2678,
           36.9747
          ],
          "type": "Point"
      }
    },{
      "type": "Feature",
      "properties": {
        "kind": "beacon",
        "name": "ADAXD"
      },
      "geometry": {
        "coordinates": [
           35.2928,
           36.9894
          ],
          "type": "Point"
      }
    },{
      "type": "Feature",
      "properties": {
        "kind": "beacon",
        "name": "ADBEL"
      },
      "geometry": {
        "coordinates": [
           31.7464,
           36.9053
          ],
          "type": "Point"
      }
    },{
      "type": "Feature",
      "properties": {
        "kind": "beacon",
        "name": "ADEKI"
      },
      "geometry": {
        "coordinates": [
           46.75,
           41.2967
          ],
          "type": "Point"
      }
    },{
      "type": "Feature",
      "properties": {
        "kind": "beacon",
        "name": "ADESO"
      },
      "geometry": {
        "coordinates": [
           26.5111,
           36.5333
          ],
          "type": "Point"
      }
    },{
      "type": "Feature",
      "properties": {
        "kind": "beacon",
        "name": "ADGEN"
      },
      "geometry": {
        "coordinates": [
           48.1581,
           40.5322
          ],
          "type": "Point"
      }
    },{
      "type": "Feature",
      "properties": {
        "kind": "beacon",
        "name": "ADILA"
      },
      "geometry": {
        "coordinates": [
           45.495,
           39.9967
          ],
          "type": "Point"
      }
    },{
      "type": "Feature",
      "properties": {
        "kind": "beacon",
        "name": "ADINA"
      },
      "geometry": {
        "coordinates": [
           30.505,
           43.8033
          ],
          "type": "Point"
      }
    },{
      "type": "Feature",
      "properties": {
        "kind": "beacon",
        "name": "ADKAR"
      },
      "geometry": {
        "coordinates": [
           35.1978,
           36.7925
          ],
          "type": "Point"
      }
    },{
      "type": "Feature",
      "properties": {
        "kind": "beacon",
        "name": "ADL"
      },
      "geometry": {
        "coordinates": [
           39.9469,
           43.4031
          ],
          "type": "Point"
      }
    },{
      "type": "Feature",
      "properties": {
        "kind": "beacon",
        "name": "ADLAS"
      },
      "geometry": {
        "coordinates": [
           33.32,
           34.9619
          ],
          "type": "Point"
      }
    },{
      "type": "Feature",
      "properties": {
        "kind": "beacon",
        "name": "ADNAK"
      },
      "geometry": {
        "coordinates": [
           47.2139,
           45.7094
          ],
          "type": "Point"
      }
    },{
      "type": "Feature",
      "properties": {
        "kind": "beacon",
        "name": "ADNET"
      },
      "geometry": {
        "coordinates": [
           39.84,
           44.3692
          ],
          "type": "Point"
      }
    },{
      "type": "Feature",
      "properties": {
        "kind": "beacon",
        "name": "ADNOS"
      },
      "geometry": {
        "coordinates": [
           40.8533,
           39.3183
          ],
          "type": "Point"
      }
    },{
      "type": "Feature",
      "properties": {
        "kind": "beacon",
        "name": "ADORU"
      },
      "geometry": {
        "coordinates": [
           26.5683,
           41.8717
          ],
          "type": "Point"
      }
    },{
      "type": "Feature",
      "properties": {
        "kind": "beacon",
        "name": "ADRES"
      },
      "geometry": {
        "coordinates": [
           37.3336,
           37.1714
          ],
          "type": "Point"
      }
    },{
      "type": "Feature",
      "properties": {
        "kind": "beacon",
        "name": "ADSEP"
      },
      "geometry": {
        "coordinates": [
           36.5481,
           37.6858
          ],
          "type": "Point"
      }
    },{
      "type": "Feature",
      "properties": {
        "kind": "beacon",
        "name": "ADUGA"
      },
      "geometry": {
        "coordinates": [
           39.59,
           45.5647
          ],
          "type": "Point"
      }
    },{
      "type": "Feature",
      "properties": {
        "kind": "beacon",
        "name": "ADULI"
      },
      "geometry": {
        "coordinates": [
           25.8697,
           44.4553
          ],
          "type": "Point"
      }
    },{
      "type": "Feature",
      "properties": {
        "kind": "beacon",
        "name": "ADUMU"
      },
      "geometry": {
        "coordinates": [
           33.0778,
           42.0711
          ],
          "type": "Point"
      }
    },{
      "type": "Feature",
      "properties": {
        "kind": "beacon",
        "name": "ADUNO"
      },
      "geometry": {
        "coordinates": [
           25.4522,
           42.0608
          ],
          "type": "Point"
      }
    },{
      "type": "Feature",
      "properties": {
        "kind": "beacon",
        "name": "ADUPA"
      },
      "geometry": {
        "coordinates": [
           33.1917,
           38.7214
          ],
          "type": "Point"
      }
    },{
      "type": "Feature",
      "properties": {
        "kind": "beacon",
        "name": "ADVER"
      },
      "geometry": {
        "coordinates": [
           22.9867,
           43.4222
          ],
          "type": "Point"
      }
    },{
      "type": "Feature",
      "properties": {
        "kind": "beacon",
        "name": "ADVOK"
      },
      "geometry": {
        "coordinates": [
           36.5011,
           39.5036
          ],
          "type": "Point"
      }
    },{
      "type": "Feature",
      "properties": {
        "kind": "beacon",
        "name": "AFGAR"
      },
      "geometry": {
        "coordinates": [
           27.8069,
           41.4503
          ],
          "type": "Point"
      }
    },{
      "type": "Feature",
      "properties": {
        "kind": "beacon",
        "name": "AGAPI"
      },
      "geometry": {
        "coordinates": [
           30.0,
           34.87
          ],
          "type": "Point"
      }
    },{
      "type": "Feature",
      "properties": {
        "kind": "beacon",
        "name": "AGAPU"
      },
      "geometry": {
        "coordinates": [
           24.3264,
           38.4225
          ],
          "type": "Point"
      }
    },{
      "type": "Feature",
      "properties": {
        "kind": "beacon",
        "name": "AGASU"
      },
      "geometry": {
        "coordinates": [
           21.8081,
           45.8811
          ],
          "type": "Point"
      }
    },{
      "type": "Feature",
      "properties": {
        "kind": "beacon",
        "name": "AGATO"
      },
      "geometry": {
        "coordinates": [
           48.5386,
           42.2664
          ],
          "type": "Point"
      }
    },{
      "type": "Feature",
      "properties": {
        "kind": "beacon",
        "name": "AGBET"
      },
      "geometry": {
        "coordinates": [
           26.8975,
           41.04
          ],
          "type": "Point"
      }
    },{
      "type": "Feature",
      "properties": {
        "kind": "beacon",
        "name": "AGDAM"
      },
      "geometry": {
        "coordinates": [
           49.2214,
           40.2644
          ],
          "type": "Point"
      }
    },{
      "type": "Feature",
      "properties": {
        "kind": "beacon",
        "name": "AGDOR"
      },
      "geometry": {
        "coordinates": [
           43.8542,
           43.3547
          ],
          "type": "Point"
      }
    },{
      "type": "Feature",
      "properties": {
        "kind": "beacon",
        "name": "AGH"
      },
      "geometry": {
        "coordinates": [
           22.7919,
           39.2161
          ],
          "type": "Point"
      }
    },{
      "type": "Feature",
      "properties": {
        "kind": "beacon",
        "name": "AGINA"
      },
      "geometry": {
        "coordinates": [
           44.0867,
           39.3233
          ],
          "type": "Point"
      }
    },{
      "type": "Feature",
      "properties": {
        "kind": "beacon",
        "name": "AGISA"
      },
      "geometry": {
        "coordinates": [
           23.3483,
           39.7333
          ],
          "type": "Point"
      }
    },{
      "type": "Feature",
      "properties": {
        "kind": "beacon",
        "name": "AGISO"
      },
      "geometry": {
        "coordinates": [
           43.4958,
           41.6278
          ],
          "type": "Point"
      }
    },{
      "type": "Feature",
      "properties": {
        "kind": "beacon",
        "name": "AGNEP"
      },
      "geometry": {
        "coordinates": [
           22.9597,
           45.45
          ],
          "type": "Point"
      }
    },{
      "type": "Feature",
      "properties": {
        "kind": "beacon",
        "name": "AGOLA"
      },
      "geometry": {
        "coordinates": [
           43.3153,
           45.7997
          ],
          "type": "Point"
      }
    },{
      "type": "Feature",
      "properties": {
        "kind": "beacon",
        "name": "AI533"
      },
      "geometry": {
        "coordinates": [
           30.11,
           36.9294
          ],
          "type": "Point"
      }
    },{
      "type": "Feature",
      "properties": {
        "kind": "beacon",
        "name": "AI712"
      },
      "geometry": {
        "coordinates": [
           31.5383,
           36.6342
          ],
          "type": "Point"
      }
    },{
      "type": "Feature",
      "properties": {
        "kind": "beacon",
        "name": "AKAKI"
      },
      "geometry": {
        "coordinates": [
           41.3714,
           41.7578
          ],
          "type": "Point"
      }
    },{
      "type": "Feature",
      "properties": {
        "kind": "beacon",
        "name": "AKBUK"
      },
      "geometry": {
        "coordinates": [
           27.4606,
           37.5
          ],
          "type": "Point"
      }
    },{
      "type": "Feature",
      "properties": {
        "kind": "beacon",
        "name": "AKCAK"
      },
      "geometry": {
        "coordinates": [
           30.7247,
           41.4289
          ],
          "type": "Point"
      }
    },{
      "type": "Feature",
      "properties": {
        "kind": "beacon",
        "name": "AKEDO"
      },
      "geometry": {
        "coordinates": [
           35.4469,
           40.9528
          ],
          "type": "Point"
      }
    },{
      "type": "Feature",
      "properties": {
        "kind": "beacon",
        "name": "AKIMO"
      },
      "geometry": {
        "coordinates": [
           29.4011,
           37.2206
          ],
          "type": "Point"
      }
    },{
      "type": "Feature",
      "properties": {
        "kind": "beacon",
        "name": "AKINA"
      },
      "geometry": {
        "coordinates": [
           26.2486,
           36.9803
          ],
          "type": "Point"
      }
    },{
      "type": "Feature",
      "properties": {
        "kind": "beacon",
        "name": "AKORO"
      },
      "geometry": {
        "coordinates": [
           24.3933,
           37.21
          ],
          "type": "Point"
      }
    },{
      "type": "Feature",
      "properties": {
        "kind": "beacon",
        "name": "AKSEK"
      },
      "geometry": {
        "coordinates": [
           28.2231,
           36.9261
          ],
          "type": "Point"
      }
    },{
      "type": "Feature",
      "properties": {
        "kind": "beacon",
        "name": "AKT"
      },
      "geometry": {
        "coordinates": [
           32.9717,
           34.6164
          ],
          "type": "Point"
      }
    },{
      "type": "Feature",
      "properties": {
        "kind": "beacon",
        "name": "AKUTU"
      },
      "geometry": {
        "coordinates": [
           42.5886,
           40.6347
          ],
          "type": "Point"
      }
    },{
      "type": "Feature",
      "properties": {
        "kind": "beacon",
        "name": "ALABO"
      },
      "geometry": {
        "coordinates": [
           48.8653,
           43.2047
          ],
          "type": "Point"
      }
    },{
      "type": "Feature",
      "properties": {
        "kind": "beacon",
        "name": "ALANI"
      },
      "geometry": {
        "coordinates": [
           23.9917,
           36.9111
          ],
          "type": "Point"
      }
    },{
      "type": "Feature",
      "properties": {
        "kind": "beacon",
        "name": "ALE"
      },
      "geometry": {
        "coordinates": [
           37.2067,
           36.1781
          ],
          "type": "Point"
      }
    },{
      "type": "Feature",
      "properties": {
        "kind": "beacon",
        "name": "ALEDA"
      },
      "geometry": {
        "coordinates": [
           27.8394,
           39.8608
          ],
          "type": "Point"
      }
    },{
      "type": "Feature",
      "properties": {
        "kind": "beacon",
        "name": "ALEGI"
      },
      "geometry": {
        "coordinates": [
           42.9986,
           44.7247
          ],
          "type": "Point"
      }
    },{
      "type": "Feature",
      "properties": {
        "kind": "beacon",
        "name": "ALENO"
      },
      "geometry": {
        "coordinates": [
           29.8414,
           43.9692
          ],
          "type": "Point"
      }
    },{
      "type": "Feature",
      "properties": {
        "kind": "beacon",
        "name": "ALIKA"
      },
      "geometry": {
        "coordinates": [
           41.5347,
           42.2525
          ],
          "type": "Point"
      }
    },{
      "type": "Feature",
      "properties": {
        "kind": "beacon",
        "name": "ALIKI"
      },
      "geometry": {
        "coordinates": [
           25.3489,
           35.925
          ],
          "type": "Point"
      }
    },{
      "type": "Feature",
      "properties": {
        "kind": "beacon",
        "name": "ALIKO"
      },
      "geometry": {
        "coordinates": [
           22.4494,
           40.7719
          ],
          "type": "Point"
      }
    },{
      "type": "Feature",
      "properties": {
        "kind": "beacon",
        "name": "ALINO"
      },
      "geometry": {
        "coordinates": [
           34.3978,
           44.6756
          ],
          "type": "Point"
      }
    },{
      "type": "Feature",
      "properties": {
        "kind": "beacon",
        "name": "ALIVI"
      },
      "geometry": {
        "coordinates": [
           26.6458,
           43.1872
          ],
          "type": "Point"
      }
    },{
      "type": "Feature",
      "properties": {
        "kind": "beacon",
        "name": "ALKIS"
      },
      "geometry": {
        "coordinates": [
           30.0,
           35.2
          ],
          "type": "Point"
      }
    },{
      "type": "Feature",
      "properties": {
        "kind": "beacon",
        "name": "ALMUS"
      },
      "geometry": {
        "coordinates": [
           36.6656,
           40.7742
          ],
          "type": "Point"
      }
    },{
      "type": "Feature",
      "properties": {
        "kind": "beacon",
        "name": "ALPAY"
      },
      "geometry": {
        "coordinates": [
           29.9994,
           36.8322
          ],
          "type": "Point"
      }
    },{
      "type": "Feature",
      "properties": {
        "kind": "beacon",
        "name": "ALRAM"
      },
      "geometry": {
        "coordinates": [
           44.6267,
           37.7083
          ],
          "type": "Point"
      }
    },{
      "type": "Feature",
      "properties": {
        "kind": "beacon",
        "name": "ALSUS"
      },
      "geometry": {
        "coordinates": [
           34.6567,
           35.035
          ],
          "type": "Point"
      }
    },{
      "type": "Feature",
      "properties": {
        "kind": "beacon",
        "name": "ALTAX"
      },
      "geometry": {
        "coordinates": [
           49.3617,
           32.5039
          ],
          "type": "Point"
      }
    },{
      "type": "Feature",
      "properties": {
        "kind": "beacon",
        "name": "ALTIN"
      },
      "geometry": {
        "coordinates": [
           29.4092,
           36.7656
          ],
          "type": "Point"
      }
    },{
      "type": "Feature",
      "properties": {
        "kind": "beacon",
        "name": "ALUBA"
      },
      "geometry": {
        "coordinates": [
           46.9792,
           42.6844
          ],
          "type": "Point"
      }
    },{
      "type": "Feature",
      "properties": {
        "kind": "beacon",
        "name": "ALUVO"
      },
      "geometry": {
        "coordinates": [
           48.1661,
           40.6089
          ],
          "type": "Point"
      }
    },{
      "type": "Feature",
      "properties": {
        "kind": "beacon",
        "name": "ALVAR"
      },
      "geometry": {
        "coordinates": [
           41.7431,
           39.9958
          ],
          "type": "Point"
      }
    },{
      "type": "Feature",
      "properties": {
        "kind": "beacon",
        "name": "ALX"
      },
      "geometry": {
        "coordinates": [
           25.9567,
           40.8539
          ],
          "type": "Point"
      }
    },{
      "type": "Feature",
      "properties": {
        "kind": "beacon",
        "name": "AMAKO"
      },
      "geometry": {
        "coordinates": [
           33.9336,
           34.7903
          ],
          "type": "Point"
      }
    },{
      "type": "Feature",
      "properties": {
        "kind": "beacon",
        "name": "AMALA"
      },
      "geometry": {
        "coordinates": [
           24.8328,
           40.5686
          ],
          "type": "Point"
      }
    },{
      "type": "Feature",
      "properties": {
        "kind": "beacon",
        "name": "AMANI"
      },
      "geometry": {
        "coordinates": [
           26.4994,
           39.3322
          ],
          "type": "Point"
      }
    },{
      "type": "Feature",
      "properties": {
        "kind": "beacon",
        "name": "AMAXI"
      },
      "geometry": {
        "coordinates": [
           25.7828,
           35.0978
          ],
          "type": "Point"
      }
    },{
      "type": "Feature",
      "properties": {
        "kind": "beacon",
        "name": "AMEIS"
      },
      "geometry": {
        "coordinates": [
           28.6817,
           40.9872
          ],
          "type": "Point"
      }
    },{
      "type": "Feature",
      "properties": {
        "kind": "beacon",
        "name": "AMGOL"
      },
      "geometry": {
        "coordinates": [
           31.435,
           46.0733
          ],
          "type": "Point"
      }
    },{
      "type": "Feature",
      "properties": {
        "kind": "beacon",
        "name": "AMIBO"
      },
      "geometry": {
        "coordinates": [
           21.6075,
           34.9444
          ],
          "type": "Point"
      }
    },{
      "type": "Feature",
      "properties": {
        "kind": "beacon",
        "name": "AMLAV"
      },
      "geometry": {
        "coordinates": [
           29.7661,
           44.1619
          ],
          "type": "Point"
      }
    },{
      "type": "Feature",
      "properties": {
        "kind": "beacon",
        "name": "AMONO"
      },
      "geometry": {
        "coordinates": [
           29.87,
           34.9722
          ],
          "type": "Point"
      }
    },{
      "type": "Feature",
      "properties": {
        "kind": "beacon",
        "name": "AMSIV"
      },
      "geometry": {
        "coordinates": [
           23.2617,
           39.9103
          ],
          "type": "Point"
      }
    },{
      "type": "Feature",
      "properties": {
        "kind": "beacon",
        "name": "AMTAR"
      },
      "geometry": {
        "coordinates": [
           21.9383,
           34.0
          ],
          "type": "Point"
      }
    },{
      "type": "Feature",
      "properties": {
        "kind": "beacon",
        "name": "AMTOV"
      },
      "geometry": {
        "coordinates": [
           26.1519,
           43.1725
          ],
          "type": "Point"
      }
    },{
      "type": "Feature",
      "properties": {
        "kind": "beacon",
        "name": "ANAGU"
      },
      "geometry": {
        "coordinates": [
           46.0156,
           41.6306
          ],
          "type": "Point"
      }
    },{
      "type": "Feature",
      "properties": {
        "kind": "beacon",
        "name": "ANAKA"
      },
      "geometry": {
        "coordinates": [
           37.3475,
           45.0022
          ],
          "type": "Point"
      }
    },{
      "type": "Feature",
      "properties": {
        "kind": "beacon",
        "name": "ANASA"
      },
      "geometry": {
        "coordinates": [
           22.5553,
           44.3119
          ],
          "type": "Point"
      }
    },{
      "type": "Feature",
      "properties": {
        "kind": "beacon",
        "name": "ANEDO"
      },
      "geometry": {
        "coordinates": [
           29.6919,
           46.3633
          ],
          "type": "Point"
      }
    },{
      "type": "Feature",
      "properties": {
        "kind": "beacon",
        "name": "ANEPI"
      },
      "geometry": {
        "coordinates": [
           22.195,
           37.4064
          ],
          "type": "Point"
      }
    },{
      "type": "Feature",
      "properties": {
        "kind": "beacon",
        "name": "ANK"
      },
      "geometry": {
        "coordinates": [
           32.8283,
           39.9533
          ],
          "type": "Point"
      }
    },{
      "type": "Feature",
      "properties": {
        "kind": "beacon",
        "name": "ANKXA"
      },
      "geometry": {
        "coordinates": [
           32.9831,
           40.1139
          ],
          "type": "Point"
      }
    },{
      "type": "Feature",
      "properties": {
        "kind": "beacon",
        "name": "ANKXD"
      },
      "geometry": {
        "coordinates": [
           33.0092,
           40.1411
          ],
          "type": "Point"
      }
    },{
      "type": "Feature",
      "properties": {
        "kind": "beacon",
        "name": "ANTAR"
      },
      "geometry": {
        "coordinates": [
           28.2667,
           33.8
          ],
          "type": "Point"
      }
    },{
      "type": "Feature",
      "properties": {
        "kind": "beacon",
        "name": "ANTOP"
      },
      "geometry": {
        "coordinates": [
           34.8583,
           42.0525
          ],
          "type": "Point"
      }
    },{
      "type": "Feature",
      "properties": {
        "kind": "beacon",
        "name": "APAKJ"
      },
      "geometry": {
        "coordinates": [
           44.1244,
           36.3511
          ],
          "type": "Point"
      }
    },{
      "type": "Feature",
      "properties": {
        "kind": "beacon",
        "name": "APLON"
      },
      "geometry": {
        "coordinates": [
           32.0667,
           33.8667
          ],
          "type": "Point"
      }
    },{
      "type": "Feature",
      "properties": {
        "kind": "beacon",
        "name": "APROB"
      },
      "geometry": {
        "coordinates": [
           25.0025,
           43.9733
          ],
          "type": "Point"
      }
    },{
      "type": "Feature",
      "properties": {
        "kind": "beacon",
        "name": "APSER"
      },
      "geometry": {
        "coordinates": [
           29.8483,
           39.3672
          ],
          "type": "Point"
      }
    },{
      "type": "Feature",
      "properties": {
        "kind": "beacon",
        "name": "APSID"
      },
      "geometry": {
        "coordinates": [
           27.6022,
           40.7969
          ],
          "type": "Point"
      }
    },{
      "type": "Feature",
      "properties": {
        "kind": "beacon",
        "name": "APTOX"
      },
      "geometry": {
        "coordinates": [
           32.5042,
           41.5931
          ],
          "type": "Point"
      }
    },{
      "type": "Feature",
      "properties": {
        "kind": "beacon",
        "name": "APVAS"
      },
      "geometry": {
        "coordinates": [
           36.6683,
           40.7642
          ],
          "type": "Point"
      }
    },{
      "type": "Feature",
      "properties": {
        "kind": "beacon",
        "name": "ARA"
      },
      "geometry": {
        "coordinates": [
           21.4294,
           38.1589
          ],
          "type": "Point"
      }
    },{
      "type": "Feature",
      "properties": {
        "kind": "beacon",
        "name": "ARB"
      },
      "geometry": {
        "coordinates": [
           48.4347,
           38.3156
          ],
          "type": "Point"
      }
    },{
      "type": "Feature",
      "properties": {
        "kind": "beacon",
        "name": "ARBAD"
      },
      "geometry": {
        "coordinates": [
           33.4767,
           43.99
          ],
          "type": "Point"
      }
    },{
      "type": "Feature",
      "properties": {
        "kind": "beacon",
        "name": "ARGES"
      },
      "geometry": {
        "coordinates": [
           26.8267,
           44.0822
          ],
          "type": "Point"
      }
    },{
      "type": "Feature",
      "properties": {
        "kind": "beacon",
        "name": "ARI"
      },
      "geometry": {
        "coordinates": [
           43.0269,
           39.6458
          ],
          "type": "Point"
      }
    },{
      "type": "Feature",
      "properties": {
        "kind": "beacon",
        "name": "ARK"
      },
      "geometry": {
        "coordinates": [
           49.8539,
           34.1372
          ],
          "type": "Point"
      }
    },{
      "type": "Feature",
      "properties": {
        "kind": "beacon",
        "name": "ARKIN"
      },
      "geometry": {
        "coordinates": [
           39.9167,
           39.9514
          ],
          "type": "Point"
      }
    },{
      "type": "Feature",
      "properties": {
        "kind": "beacon",
        "name": "ARKUT"
      },
      "geometry": {
        "coordinates": [
           38.0917,
           44.0264
          ],
          "type": "Point"
      }
    },{
      "type": "Feature",
      "properties": {
        "kind": "beacon",
        "name": "ARLAT"
      },
      "geometry": {
        "coordinates": [
           38.7019,
           41.0969
          ],
          "type": "Point"
      }
    },{
      "type": "Feature",
      "properties": {
        "kind": "beacon",
        "name": "ARLOS"
      },
      "geometry": {
        "coordinates": [
           23.0,
           34.6253
          ],
          "type": "Point"
      }
    },{
      "type": "Feature",
      "properties": {
        "kind": "beacon",
        "name": "ARMAM"
      },
      "geometry": {
        "coordinates": [
           28.4714,
           37.2394
          ],
          "type": "Point"
      }
    },{
      "type": "Feature",
      "properties": {
        "kind": "beacon",
        "name": "ARMUD"
      },
      "geometry": {
        "coordinates": [
           33.4856,
           39.2217
          ],
          "type": "Point"
      }
    },{
      "type": "Feature",
      "properties": {
        "kind": "beacon",
        "name": "ARNAS"
      },
      "geometry": {
        "coordinates": [
           23.4806,
           40.5281
          ],
          "type": "Point"
      }
    },{
      "type": "Feature",
      "properties": {
        "kind": "beacon",
        "name": "ARNAX"
      },
      "geometry": {
        "coordinates": [
           25.8294,
           44.3786
          ],
          "type": "Point"
      }
    },{
      "type": "Feature",
      "properties": {
        "kind": "beacon",
        "name": "ARNOV"
      },
      "geometry": {
        "coordinates": [
           26.7681,
           42.7478
          ],
          "type": "Point"
      }
    },{
      "type": "Feature",
      "properties": {
        "kind": "beacon",
        "name": "ARPAG"
      },
      "geometry": {
        "coordinates": [
           37.2744,
           37.2625
          ],
          "type": "Point"
      }
    },{
      "type": "Feature",
      "properties": {
        "kind": "beacon",
        "name": "ARPEM"
      },
      "geometry": {
        "coordinates": [
           31.9481,
           41.8803
          ],
          "type": "Point"
      }
    },{
      "type": "Feature",
      "properties": {
        "kind": "beacon",
        "name": "ARPUT"
      },
      "geometry": {
        "coordinates": [
           38.9419,
           38.8422
          ],
          "type": "Point"
      }
    },{
      "type": "Feature",
      "properties": {
        "kind": "beacon",
        "name": "ARSUG"
      },
      "geometry": {
        "coordinates": [
           38.2722,
           41.1331
          ],
          "type": "Point"
      }
    },{
      "type": "Feature",
      "properties": {
        "kind": "beacon",
        "name": "ARTAR"
      },
      "geometry": {
        "coordinates": [
           38.8447,
           37.0939
          ],
          "type": "Point"
      }
    },{
      "type": "Feature",
      "properties": {
        "kind": "beacon",
        "name": "ARTAT"
      },
      "geometry": {
        "coordinates": [
           29.6242,
           42.3639
          ],
          "type": "Point"
      }
    },{
      "type": "Feature",
      "properties": {
        "kind": "beacon",
        "name": "ARVUT"
      },
      "geometry": {
        "coordinates": [
           27.2803,
           37.3422
          ],
          "type": "Point"
      }
    },{
      "type": "Feature",
      "properties": {
        "kind": "beacon",
        "name": "ASBEP"
      },
      "geometry": {
        "coordinates": [
           32.1236,
           42.2628
          ],
          "type": "Point"
      }
    },{
      "type": "Feature",
      "properties": {
        "kind": "beacon",
        "name": "ASBOM"
      },
      "geometry": {
        "coordinates": [
           37.0414,
           37.2589
          ],
          "type": "Point"
      }
    },{
      "type": "Feature",
      "properties": {
        "kind": "beacon",
        "name": "ASDEV"
      },
      "geometry": {
        "coordinates": [
           29.1214,
           40.8292
          ],
          "type": "Point"
      }
    },{
      "type": "Feature",
      "properties": {
        "kind": "beacon",
        "name": "ASGUK"
      },
      "geometry": {
        "coordinates": [
           29.6861,
           40.1753
          ],
          "type": "Point"
      }
    },{
      "type": "Feature",
      "properties": {
        "kind": "beacon",
        "name": "ASIMI"
      },
      "geometry": {
        "coordinates": [
           27.7311,
           36.4656
          ],
          "type": "Point"
      }
    },{
      "type": "Feature",
      "properties": {
        "kind": "beacon",
        "name": "ASKEM"
      },
      "geometry": {
        "coordinates": [
           34.4103,
           45.2247
          ],
          "type": "Point"
      }
    },{
      "type": "Feature",
      "properties": {
        "kind": "beacon",
        "name": "ASKER"
      },
      "geometry": {
        "coordinates": [
           38.7847,
           38.2769
          ],
          "type": "Point"
      }
    },{
      "type": "Feature",
      "properties": {
        "kind": "beacon",
        "name": "ASKOS"
      },
      "geometry": {
        "coordinates": [
           24.2703,
           40.6381
          ],
          "type": "Point"
      }
    },{
      "type": "Feature",
      "properties": {
        "kind": "beacon",
        "name": "ASKUT"
      },
      "geometry": {
        "coordinates": [
           28.2378,
           46.4031
          ],
          "type": "Point"
      }
    },{
      "type": "Feature",
      "properties": {
        "kind": "beacon",
        "name": "ASMAP"
      },
      "geometry": {
        "coordinates": [
           30.7114,
           40.6314
          ],
          "type": "Point"
      }
    },{
      "type": "Feature",
      "properties": {
        "kind": "beacon",
        "name": "ASMIK"
      },
      "geometry": {
        "coordinates": [
           44.2333,
           40.6614
          ],
          "type": "Point"
      }
    },{
      "type": "Feature",
      "properties": {
        "kind": "beacon",
        "name": "ASMOB"
      },
      "geometry": {
        "coordinates": [
           32.2328,
           41.6694
          ],
          "type": "Point"
      }
    },{
      "type": "Feature",
      "properties": {
        "kind": "beacon",
        "name": "ASNEL"
      },
      "geometry": {
        "coordinates": [
           26.33,
           44.5367
          ],
          "type": "Point"
      }
    },{
      "type": "Feature",
      "properties": {
        "kind": "beacon",
        "name": "ASNIR"
      },
      "geometry": {
        "coordinates": [
           28.3622,
           32.6469
          ],
          "type": "Point"
      }
    },{
      "type": "Feature",
      "properties": {
        "kind": "beacon",
        "name": "ASNOT"
      },
      "geometry": {
        "coordinates": [
           42.9547,
           33.5
          ],
          "type": "Point"
      }
    },{
      "type": "Feature",
      "properties": {
        "kind": "beacon",
        "name": "ASNUT"
      },
      "geometry": {
        "coordinates": [
           27.0081,
           40.2283
          ],
          "type": "Point"
      }
    },{
      "type": "Feature",
      "properties": {
        "kind": "beacon",
        "name": "ASPIS"
      },
      "geometry": {
        "coordinates": [
           32.2283,
           33.4817
          ],
          "type": "Point"
      }
    },{
      "type": "Feature",
      "properties": {
        "kind": "beacon",
        "name": "ASPIV"
      },
      "geometry": {
        "coordinates": [
           24.7064,
           40.7689
          ],
          "type": "Point"
      }
    },{
      "type": "Feature",
      "properties": {
        "kind": "beacon",
        "name": "ASPOK"
      },
      "geometry": {
        "coordinates": [
           48.83,
           36.9883
          ],
          "type": "Point"
      }
    },{
      "type": "Feature",
      "properties": {
        "kind": "beacon",
        "name": "ASPUL"
      },
      "geometry": {
        "coordinates": [
           40.4128,
           38.5517
          ],
          "type": "Point"
      }
    },{
      "type": "Feature",
      "properties": {
        "kind": "beacon",
        "name": "ASRIL"
      },
      "geometry": {
        "coordinates": [
           47.7536,
           34.4703
          ],
          "type": "Point"
      }
    },{
      "type": "Feature",
      "properties": {
        "kind": "beacon",
        "name": "ASTAL"
      },
      "geometry": {
        "coordinates": [
           33.1244,
           40.7406
          ],
          "type": "Point"
      }
    },{
      "type": "Feature",
      "properties": {
        "kind": "beacon",
        "name": "ASTIS"
      },
      "geometry": {
        "coordinates": [
           26.2328,
           36.5653
          ],
          "type": "Point"
      }
    },{
      "type": "Feature",
      "properties": {
        "kind": "beacon",
        "name": "ASTOV"
      },
      "geometry": {
        "coordinates": [
           22.5344,
           37.4208
          ],
          "type": "Point"
      }
    },{
      "type": "Feature",
      "properties": {
        "kind": "beacon",
        "name": "ASVOD"
      },
      "geometry": {
        "coordinates": [
           37.5728,
           40.0822
          ],
          "type": "Point"
      }
    },{
      "type": "Feature",
      "properties": {
        "kind": "beacon",
        "name": "ATBOG"
      },
      "geometry": {
        "coordinates": [
           26.9311,
           43.5558
          ],
          "type": "Point"
      }
    },{
      "type": "Feature",
      "properties": {
        "kind": "beacon",
        "name": "ATCOS"
      },
      "geometry": {
        "coordinates": [
           28.6328,
           40.8942
          ],
          "type": "Point"
      }
    },{
      "type": "Feature",
      "properties": {
        "kind": "beacon",
        "name": "ATFIR"
      },
      "geometry": {
        "coordinates": [
           23.7747,
           41.4017
          ],
          "type": "Point"
      }
    },{
      "type": "Feature",
      "properties": {
        "kind": "beacon",
        "name": "ATGIT"
      },
      "geometry": {
        "coordinates": [
           29.7492,
           38.2014
          ],
          "type": "Point"
      }
    },{
      "type": "Feature",
      "properties": {
        "kind": "beacon",
        "name": "ATGOB"
      },
      "geometry": {
        "coordinates": [
           31.2508,
           40.7253
          ],
          "type": "Point"
      }
    },{
      "type": "Feature",
      "properties": {
        "kind": "beacon",
        "name": "ATH"
      },
      "geometry": {
        "coordinates": [
           23.9719,
           37.9481
          ],
          "type": "Point"
      }
    },{
      "type": "Feature",
      "properties": {
        "kind": "beacon",
        "name": "ATKAN"
      },
      "geometry": {
        "coordinates": [
           27.8494,
           39.52
          ],
          "type": "Point"
      }
    },{
      "type": "Feature",
      "properties": {
        "kind": "beacon",
        "name": "ATLAN"
      },
      "geometry": {
        "coordinates": [
           25.4261,
           35.8475
          ],
          "type": "Point"
      }
    },{
      "type": "Feature",
      "properties": {
        "kind": "beacon",
        "name": "ATLIT"
      },
      "geometry": {
        "coordinates": [
           34.9153,
           32.6978
          ],
          "type": "Point"
      }
    },{
      "type": "Feature",
      "properties": {
        "kind": "beacon",
        "name": "ATLOM"
      },
      "geometry": {
        "coordinates": [
           39.3486,
           37.3856
          ],
          "type": "Point"
      }
    },{
      "type": "Feature",
      "properties": {
        "kind": "beacon",
        "name": "ATMAK"
      },
      "geometry": {
        "coordinates": [
           27.4906,
           43.0556
          ],
          "type": "Point"
      }
    },{
      "type": "Feature",
      "properties": {
        "kind": "beacon",
        "name": "ATNOP"
      },
      "geometry": {
        "coordinates": [
           34.8583,
           42.0522
          ],
          "type": "Point"
      }
    },{
      "type": "Feature",
      "properties": {
        "kind": "beacon",
        "name": "ATPIX"
      },
      "geometry": {
        "coordinates": [
           30.6236,
           41.7533
          ],
          "type": "Point"
      }
    },{
      "type": "Feature",
      "properties": {
        "kind": "beacon",
        "name": "ATPOX"
      },
      "geometry": {
        "coordinates": [
           24.735,
           39.1117
          ],
          "type": "Point"
      }
    },{
      "type": "Feature",
      "properties": {
        "kind": "beacon",
        "name": "ATPUM"
      },
      "geometry": {
        "coordinates": [
           40.3758,
           41.1933
          ],
          "type": "Point"
      }
    },{
      "type": "Feature",
      "properties": {
        "kind": "beacon",
        "name": "ATRAP"
      },
      "geometry": {
        "coordinates": [
           26.6297,
           44.6436
          ],
          "type": "Point"
      }
    },{
      "type": "Feature",
      "properties": {
        "kind": "beacon",
        "name": "ATRIV"
      },
      "geometry": {
        "coordinates": [
           37.3186,
           40.2125
          ],
          "type": "Point"
      }
    },{
      "type": "Feature",
      "properties": {
        "kind": "beacon",
        "name": "ATSAL"
      },
      "geometry": {
        "coordinates": [
           28.7189,
           37.5003
          ],
          "type": "Point"
      }
    },{
      "type": "Feature",
      "properties": {
        "kind": "beacon",
        "name": "ATSUB"
      },
      "geometry": {
        "coordinates": [
           31.6239,
           36.585
          ],
          "type": "Point"
      }
    },{
      "type": "Feature",
      "properties": {
        "kind": "beacon",
        "name": "ATV"
      },
      "geometry": {
        "coordinates": [
           23.8044,
           37.8886
          ],
          "type": "Point"
      }
    },{
      "type": "Feature",
      "properties": {
        "kind": "beacon",
        "name": "ATVAM"
      },
      "geometry": {
        "coordinates": [
           39.5831,
           41.6433
          ],
          "type": "Point"
      }
    },{
      "type": "Feature",
      "properties": {
        "kind": "beacon",
        "name": "ATVAS"
      },
      "geometry": {
        "coordinates": [
           28.7786,
           41.7625
          ],
          "type": "Point"
      }
    },{
      "type": "Feature",
      "properties": {
        "kind": "beacon",
        "name": "ATVEP"
      },
      "geometry": {
        "coordinates": [
           26.9536,
           41.4622
          ],
          "type": "Point"
      }
    },{
      "type": "Feature",
      "properties": {
        "kind": "beacon",
        "name": "AYT"
      },
      "geometry": {
        "coordinates": [
           30.7944,
           36.9206
          ],
          "type": "Point"
      }
    },{
      "type": "Feature",
      "properties": {
        "kind": "beacon",
        "name": "AYT01"
      },
      "geometry": {
        "coordinates": [
           30.81,
           36.9533
          ],
          "type": "Point"
      }
    },{
      "type": "Feature",
      "properties": {
        "kind": "beacon",
        "name": "AYT02"
      },
      "geometry": {
        "coordinates": [
           30.8331,
           36.9494
          ],
          "type": "Point"
      }
    },{
      "type": "Feature",
      "properties": {
        "kind": "beacon",
        "name": "AYT03"
      },
      "geometry": {
        "coordinates": [
           30.8367,
           36.9314
          ],
          "type": "Point"
      }
    },{
      "type": "Feature",
      "properties": {
        "kind": "beacon",
        "name": "AYTXA"
      },
      "geometry": {
        "coordinates": [
           30.7903,
           36.885
          ],
          "type": "Point"
      }
    },{
      "type": "Feature",
      "properties": {
        "kind": "beacon",
        "name": "AYTXD"
      },
      "geometry": {
        "coordinates": [
           30.7947,
           36.9153
          ],
          "type": "Point"
      }
    },{
      "type": "Feature",
      "properties": {
        "kind": "beacon",
        "name": "AZABI"
      },
      "geometry": {
        "coordinates": [
           49.5,
           44.74
          ],
          "type": "Point"
      }
    },{
      "type": "Feature",
      "properties": {
        "kind": "beacon",
        "name": "AZBUL"
      },
      "geometry": {
        "coordinates": [
           33.3619,
           39.3822
          ],
          "type": "Point"
      }
    },{
      "type": "Feature",
      "properties": {
        "kind": "beacon",
        "name": "BA090"
      },
      "geometry": {
        "coordinates": [
           28.9647,
           41.0372
          ],
          "type": "Point"
      }
    },{
      "type": "Feature",
      "properties": {
        "kind": "beacon",
        "name": "BA091"
      },
      "geometry": {
        "coordinates": [
           28.9406,
           40.9406
          ],
          "type": "Point"
      }
    },{
      "type": "Feature",
      "properties": {
        "kind": "beacon",
        "name": "BA092"
      },
      "geometry": {
        "coordinates": [
           28.7744,
           40.8481
          ],
          "type": "Point"
      }
    },{
      "type": "Feature",
      "properties": {
        "kind": "beacon",
        "name": "BA095"
      },
      "geometry": {
        "coordinates": [
           29.1969,
           41.015
          ],
          "type": "Point"
      }
    },{
      "type": "Feature",
      "properties": {
        "kind": "beacon",
        "name": "BA234"
      },
      "geometry": {
        "coordinates": [
           29.6375,
           39.9567
          ],
          "type": "Point"
      }
    },{
      "type": "Feature",
      "properties": {
        "kind": "beacon",
        "name": "BA235"
      },
      "geometry": {
        "coordinates": [
           29.2189,
           40.0308
          ],
          "type": "Point"
      }
    },{
      "type": "Feature",
      "properties": {
        "kind": "beacon",
        "name": "BA243"
      },
      "geometry": {
        "coordinates": [
           30.3589,
           40.4758
          ],
          "type": "Point"
      }
    },{
      "type": "Feature",
      "properties": {
        "kind": "beacon",
        "name": "BA246"
      },
      "geometry": {
        "coordinates": [
           29.0558,
           40.3028
          ],
          "type": "Point"
      }
    },{
      "type": "Feature",
      "properties": {
        "kind": "beacon",
        "name": "BA247"
      },
      "geometry": {
        "coordinates": [
           28.8244,
           40.4158
          ],
          "type": "Point"
      }
    },{
      "type": "Feature",
      "properties": {
        "kind": "beacon",
        "name": "BA248"
      },
      "geometry": {
        "coordinates": [
           28.6944,
           40.5011
          ],
          "type": "Point"
      }
    },{
      "type": "Feature",
      "properties": {
        "kind": "beacon",
        "name": "BA355"
      },
      "geometry": {
        "coordinates": [
           26.9467,
           41.1914
          ],
          "type": "Point"
      }
    },{
      "type": "Feature",
      "properties": {
        "kind": "beacon",
        "name": "BA356"
      },
      "geometry": {
        "coordinates": [
           27.1658,
           40.8211
          ],
          "type": "Point"
      }
    },{
      "type": "Feature",
      "properties": {
        "kind": "beacon",
        "name": "BA357"
      },
      "geometry": {
        "coordinates": [
           27.5572,
           40.7139
          ],
          "type": "Point"
      }
    },{
      "type": "Feature",
      "properties": {
        "kind": "beacon",
        "name": "BA358"
      },
      "geometry": {
        "coordinates": [
           27.7869,
           40.7117
          ],
          "type": "Point"
      }
    },{
      "type": "Feature",
      "properties": {
        "kind": "beacon",
        "name": "BA359"
      },
      "geometry": {
        "coordinates": [
           28.6022,
           40.8344
          ],
          "type": "Point"
      }
    },{
      "type": "Feature",
      "properties": {
        "kind": "beacon",
        "name": "BA366"
      },
      "geometry": {
        "coordinates": [
           27.4503,
           40.565
          ],
          "type": "Point"
      }
    },{
      "type": "Feature",
      "properties": {
        "kind": "beacon",
        "name": "BA444"
      },
      "geometry": {
        "coordinates": [
           30.0786,
           40.5814
          ],
          "type": "Point"
      }
    },{
      "type": "Feature",
      "properties": {
        "kind": "beacon",
        "name": "BA445"
      },
      "geometry": {
        "coordinates": [
           29.5997,
           40.5808
          ],
          "type": "Point"
      }
    },{
      "type": "Feature",
      "properties": {
        "kind": "beacon",
        "name": "BA446"
      },
      "geometry": {
        "coordinates": [
           29.2869,
           40.5794
          ],
          "type": "Point"
      }
    },{
      "type": "Feature",
      "properties": {
        "kind": "beacon",
        "name": "BA447"
      },
      "geometry": {
        "coordinates": [
           28.6986,
           40.7947
          ],
          "type": "Point"
      }
    },{
      "type": "Feature",
      "properties": {
        "kind": "beacon",
        "name": "BA457"
      },
      "geometry": {
        "coordinates": [
           28.3792,
           41.3133
          ],
          "type": "Point"
      }
    },{
      "type": "Feature",
      "properties": {
        "kind": "beacon",
        "name": "BA458"
      },
      "geometry": {
        "coordinates": [
           28.1214,
           40.9981
          ],
          "type": "Point"
      }
    },{
      "type": "Feature",
      "properties": {
        "kind": "beacon",
        "name": "BABIB"
      },
      "geometry": {
        "coordinates": [
           29.0514,
           46.1786
          ],
          "type": "Point"
      }
    },{
      "type": "Feature",
      "properties": {
        "kind": "beacon",
        "name": "BABIL"
      },
      "geometry": {
        "coordinates": [
           43.0767,
           32.58
          ],
          "type": "Point"
      }
    },{
      "type": "Feature",
      "properties": {
        "kind": "beacon",
        "name": "BABIN"
      },
      "geometry": {
        "coordinates": [
           31.0,
           44.425
          ],
          "type": "Point"
      }
    },{
      "type": "Feature",
      "properties": {
        "kind": "beacon",
        "name": "BABLI"
      },
      "geometry": {
        "coordinates": [
           36.8631,
           36.9533
          ],
          "type": "Point"
      }
    },{
      "type": "Feature",
      "properties": {
        "kind": "beacon",
        "name": "BABSA"
      },
      "geometry": {
        "coordinates": [
           30.305,
           38.0156
          ],
          "type": "Point"
      }
    },{
      "type": "Feature",
      "properties": {
        "kind": "beacon",
        "name": "BABUR"
      },
      "geometry": {
        "coordinates": [
           49.5,
           45.3867
          ],
          "type": "Point"
      }
    },{
      "type": "Feature",
      "properties": {
        "kind": "beacon",
        "name": "BADEL"
      },
      "geometry": {
        "coordinates": [
           24.0739,
           37.0006
          ],
          "type": "Point"
      }
    },{
      "type": "Feature",
      "properties": {
        "kind": "beacon",
        "name": "BADEM"
      },
      "geometry": {
        "coordinates": [
           38.66,
           37.6044
          ],
          "type": "Point"
      }
    },{
      "type": "Feature",
      "properties": {
        "kind": "beacon",
        "name": "BADIR"
      },
      "geometry": {
        "coordinates": [
           45.3667,
           41.4833
          ],
          "type": "Point"
      }
    },{
      "type": "Feature",
      "properties": {
        "kind": "beacon",
        "name": "BADKA"
      },
      "geometry": {
        "coordinates": [
           29.1108,
           45.3775
          ],
          "type": "Point"
      }
    },{
      "type": "Feature",
      "properties": {
        "kind": "beacon",
        "name": "BADKO"
      },
      "geometry": {
        "coordinates": [
           43.5069,
           44.5114
          ],
          "type": "Point"
      }
    },{
      "type": "Feature",
      "properties": {
        "kind": "beacon",
        "name": "BADOG"
      },
      "geometry": {
        "coordinates": [
           21.9814,
           36.0517
          ],
          "type": "Point"
      }
    },{
      "type": "Feature",
      "properties": {
        "kind": "beacon",
        "name": "BADOX"
      },
      "geometry": {
        "coordinates": [
           33.9753,
           39.3319
          ],
          "type": "Point"
      }
    },{
      "type": "Feature",
      "properties": {
        "kind": "beacon",
        "name": "BAFRA"
      },
      "geometry": {
        "coordinates": [
           35.9664,
           41.5086
          ],
          "type": "Point"
      }
    },{
      "type": "Feature",
      "properties": {
        "kind": "beacon",
        "name": "BAG"
      },
      "geometry": {
        "coordinates": [
           32.8103,
           40.0697
          ],
          "type": "Point"
      }
    },{
      "type": "Feature",
      "properties": {
        "kind": "beacon",
        "name": "BAGEM"
      },
      "geometry": {
        "coordinates": [
           44.4806,
           41.5989
          ],
          "type": "Point"
      }
    },{
      "type": "Feature",
      "properties": {
        "kind": "beacon",
        "name": "BAGLU"
      },
      "geometry": {
        "coordinates": [
           29.3253,
           38.0711
          ],
          "type": "Point"
      }
    },{
      "type": "Feature",
      "properties": {
        "kind": "beacon",
        "name": "BAGRI"
      },
      "geometry": {
        "coordinates": [
           29.8033,
           45.1867
          ],
          "type": "Point"
      }
    },{
      "type": "Feature",
      "properties": {
        "kind": "beacon",
        "name": "BAGVA"
      },
      "geometry": {
        "coordinates": [
           46.2933,
           41.0414
          ],
          "type": "Point"
      }
    },{
      "type": "Feature",
      "properties": {
        "kind": "beacon",
        "name": "BAKIR"
      },
      "geometry": {
        "coordinates": [
           33.3244,
           39.4378
          ],
          "type": "Point"
      }
    },{
      "type": "Feature",
      "properties": {
        "kind": "beacon",
        "name": "BAKLO"
      },
      "geometry": {
        "coordinates": [
           26.4922,
           42.5428
          ],
          "type": "Point"
      }
    },{
      "type": "Feature",
      "properties": {
        "kind": "beacon",
        "name": "BAKPI"
      },
      "geometry": {
        "coordinates": [
           29.6592,
           38.7494
          ],
          "type": "Point"
      }
    },{
      "type": "Feature",
      "properties": {
        "kind": "beacon",
        "name": "BAKRI"
      },
      "geometry": {
        "coordinates": [
           38.2817,
           43.8981
          ],
          "type": "Point"
      }
    },{
      "type": "Feature",
      "properties": {
        "kind": "beacon",
        "name": "BALAX"
      },
      "geometry": {
        "coordinates": [
           33.7808,
           39.4575
          ],
          "type": "Point"
      }
    },{
      "type": "Feature",
      "properties": {
        "kind": "beacon",
        "name": "BALBI"
      },
      "geometry": {
        "coordinates": [
           25.7542,
           44.905
          ],
          "type": "Point"
      }
    },{
      "type": "Feature",
      "properties": {
        "kind": "beacon",
        "name": "BALED"
      },
      "geometry": {
        "coordinates": [
           32.3417,
           45.4417
          ],
          "type": "Point"
      }
    },{
      "type": "Feature",
      "properties": {
        "kind": "beacon",
        "name": "BALEG"
      },
      "geometry": {
        "coordinates": [
           39.3183,
           45.6531
          ],
          "type": "Point"
      }
    },{
      "type": "Feature",
      "properties": {
        "kind": "beacon",
        "name": "BALIK"
      },
      "geometry": {
        "coordinates": [
           27.3,
           43.6767
          ],
          "type": "Point"
      }
    },{
      "type": "Feature",
      "properties": {
        "kind": "beacon",
        "name": "BALIM"
      },
      "geometry": {
        "coordinates": [
           41.1242,
           38.4297
          ],
          "type": "Point"
      }
    },{
      "type": "Feature",
      "properties": {
        "kind": "beacon",
        "name": "BALMA"
      },
      "geometry": {
        "coordinates": [
           35.05,
           34.4833
          ],
          "type": "Point"
      }
    },{
      "type": "Feature",
      "properties": {
        "kind": "beacon",
        "name": "BALON"
      },
      "geometry": {
        "coordinates": [
           39.6083,
           40.0917
          ],
          "type": "Point"
      }
    },{
      "type": "Feature",
      "properties": {
        "kind": "beacon",
        "name": "BALSU"
      },
      "geometry": {
        "coordinates": [
           29.4236,
           37.4583
          ],
          "type": "Point"
      }
    },{
      "type": "Feature",
      "properties": {
        "kind": "beacon",
        "name": "BALUM"
      },
      "geometry": {
        "coordinates": [
           37.6667,
           42.6833
          ],
          "type": "Point"
      }
    },{
      "type": "Feature",
      "properties": {
        "kind": "beacon",
        "name": "BAMDA"
      },
      "geometry": {
        "coordinates": [
           43.7989,
           43.4714
          ],
          "type": "Point"
      }
    },{
      "type": "Feature",
      "properties": {
        "kind": "beacon",
        "name": "BAMLA"
      },
      "geometry": {
        "coordinates": [
           38.9028,
           40.6403
          ],
          "type": "Point"
      }
    },{
      "type": "Feature",
      "properties": {
        "kind": "beacon",
        "name": "BAMOG"
      },
      "geometry": {
        "coordinates": [
           45.2153,
           43.4664
          ],
          "type": "Point"
      }
    },{
      "type": "Feature",
      "properties": {
        "kind": "beacon",
        "name": "BAMOS"
      },
      "geometry": {
        "coordinates": [
           23.5611,
           39.2947
          ],
          "type": "Point"
      }
    },{
      "type": "Feature",
      "properties": {
        "kind": "beacon",
        "name": "BAMUP"
      },
      "geometry": {
        "coordinates": [
           32.0172,
           42.5875
          ],
          "type": "Point"
      }
    },{
      "type": "Feature",
      "properties": {
        "kind": "beacon",
        "name": "BAN"
      },
      "geometry": {
        "coordinates": [
           35.9558,
           35.22
          ],
          "type": "Point"
      }
    },{
      "type": "Feature",
      "properties": {
        "kind": "beacon",
        "name": "BANAG"
      },
      "geometry": {
        "coordinates": [
           44.6236,
           40.0611
          ],
          "type": "Point"
      }
    },{
      "type": "Feature",
      "properties": {
        "kind": "beacon",
        "name": "BANRO"
      },
      "geometry": {
        "coordinates": [
           27.9953,
           36.4947
          ],
          "type": "Point"
      }
    },{
      "type": "Feature",
      "properties": {
        "kind": "beacon",
        "name": "BANUR"
      },
      "geometry": {
        "coordinates": [
           30.9667,
           43.6833
          ],
          "type": "Point"
      }
    },{
      "type": "Feature",
      "properties": {
        "kind": "beacon",
        "name": "BANUT"
      },
      "geometry": {
        "coordinates": [
           39.9853,
           42.9897
          ],
          "type": "Point"
      }
    },{
      "type": "Feature",
      "properties": {
        "kind": "beacon",
        "name": "BAPAX"
      },
      "geometry": {
        "coordinates": [
           34.1742,
           35.7017
          ],
          "type": "Point"
      }
    },{
      "type": "Feature",
      "properties": {
        "kind": "beacon",
        "name": "BAPNI"
      },
      "geometry": {
        "coordinates": [
           45.5278,
           43.325
          ],
          "type": "Point"
      }
    },{
      "type": "Feature",
      "properties": {
        "kind": "beacon",
        "name": "BAPSI"
      },
      "geometry": {
        "coordinates": [
           27.9042,
           38.0022
          ],
          "type": "Point"
      }
    },{
      "type": "Feature",
      "properties": {
        "kind": "beacon",
        "name": "BARAD"
      },
      "geometry": {
        "coordinates": [
           45.0833,
           41.3586
          ],
          "type": "Point"
      }
    },{
      "type": "Feature",
      "properties": {
        "kind": "beacon",
        "name": "BARPE"
      },
      "geometry": {
        "coordinates": [
           26.9781,
           40.9261
          ],
          "type": "Point"
      }
    },{
      "type": "Feature",
      "properties": {
        "kind": "beacon",
        "name": "BARUK"
      },
      "geometry": {
        "coordinates": [
           28.5697,
           44.5414
          ],
          "type": "Point"
      }
    },{
      "type": "Feature",
      "properties": {
        "kind": "beacon",
        "name": "BARUS"
      },
      "geometry": {
        "coordinates": [
           42.8417,
           41.905
          ],
          "type": "Point"
      }
    },{
      "type": "Feature",
      "properties": {
        "kind": "beacon",
        "name": "BASEM"
      },
      "geometry": {
        "coordinates": [
           37.6519,
           33.5603
          ],
          "type": "Point"
      }
    },{
      "type": "Feature",
      "properties": {
        "kind": "beacon",
        "name": "BASKA"
      },
      "geometry": {
        "coordinates": [
           43.4486,
           42.5831
          ],
          "type": "Point"
      }
    },{
      "type": "Feature",
      "properties": {
        "kind": "beacon",
        "name": "BASMU"
      },
      "geometry": {
        "coordinates": [
           30.5425,
           40.6667
          ],
          "type": "Point"
      }
    },{
      "type": "Feature",
      "properties": {
        "kind": "beacon",
        "name": "BAT"
      },
      "geometry": {
        "coordinates": [
           41.12,
           37.9375
          ],
          "type": "Point"
      }
    },{
      "type": "Feature",
      "properties": {
        "kind": "beacon",
        "name": "BATNU"
      },
      "geometry": {
        "coordinates": [
           32.7239,
           36.1608
          ],
          "type": "Point"
      }
    },{
      "type": "Feature",
      "properties": {
        "kind": "beacon",
        "name": "BATUK"
      },
      "geometry": {
        "coordinates": [
           28.1467,
           37.25
          ],
          "type": "Point"
      }
    },{
      "type": "Feature",
      "properties": {
        "kind": "beacon",
        "name": "BAU01"
      },
      "geometry": {
        "coordinates": [
           49.7606,
           40.5708
          ],
          "type": "Point"
      }
    },{
      "type": "Feature",
      "properties": {
        "kind": "beacon",
        "name": "BAU05"
      },
      "geometry": {
        "coordinates": [
           49.9444,
           40.5056
          ],
          "type": "Point"
      }
    },{
      "type": "Feature",
      "properties": {
        "kind": "beacon",
        "name": "BAVBO"
      },
      "geometry": {
        "coordinates": [
           33.73,
           41.8
          ],
          "type": "Point"
      }
    },{
      "type": "Feature",
      "properties": {
        "kind": "beacon",
        "name": "BAVES"
      },
      "geometry": {
        "coordinates": [
           24.7269,
           35.4247
          ],
          "type": "Point"
      }
    },{
      "type": "Feature",
      "properties": {
        "kind": "beacon",
        "name": "BAVGA"
      },
      "geometry": {
        "coordinates": [
           22.665,
           42.5939
          ],
          "type": "Point"
      }
    },{
      "type": "Feature",
      "properties": {
        "kind": "beacon",
        "name": "BAVTI"
      },
      "geometry": {
        "coordinates": [
           40.2547,
           40.6628
          ],
          "type": "Point"
      }
    },{
      "type": "Feature",
      "properties": {
        "kind": "beacon",
        "name": "BAYIR"
      },
      "geometry": {
        "coordinates": [
           41.4039,
           38.5947
          ],
          "type": "Point"
      }
    },{
      "type": "Feature",
      "properties": {
        "kind": "beacon",
        "name": "BB101"
      },
      "geometry": {
        "coordinates": [
           49.99,
           40.2867
          ],
          "type": "Point"
      }
    },{
      "type": "Feature",
      "properties": {
        "kind": "beacon",
        "name": "BB103"
      },
      "geometry": {
        "coordinates": [
           49.7047,
           40.2758
          ],
          "type": "Point"
      }
    },{
      "type": "Feature",
      "properties": {
        "kind": "beacon",
        "name": "BB105"
      },
      "geometry": {
        "coordinates": [
           49.4369,
           40.2828
          ],
          "type": "Point"
      }
    },{
      "type": "Feature",
      "properties": {
        "kind": "beacon",
        "name": "BB107"
      },
      "geometry": {
        "coordinates": [
           49.7694,
           40.6292
          ],
          "type": "Point"
      }
    },{
      "type": "Feature",
      "properties": {
        "kind": "beacon",
        "name": "BB501"
      },
      "geometry": {
        "coordinates": [
           49.9608,
           40.7217
          ],
          "type": "Point"
      }
    },{
      "type": "Feature",
      "properties": {
        "kind": "beacon",
        "name": "BB503"
      },
      "geometry": {
        "coordinates": [
           49.9597,
           40.8953
          ],
          "type": "Point"
      }
    },{
      "type": "Feature",
      "properties": {
        "kind": "beacon",
        "name": "BB504"
      },
      "geometry": {
        "coordinates": [
           49.9642,
           40.9819
          ],
          "type": "Point"
      }
    },{
      "type": "Feature",
      "properties": {
        "kind": "beacon",
        "name": "BB506"
      },
      "geometry": {
        "coordinates": [
           49.8644,
           40.9711
          ],
          "type": "Point"
      }
    },{
      "type": "Feature",
      "properties": {
        "kind": "beacon",
        "name": "BB512"
      },
      "geometry": {
        "coordinates": [
           49.85,
           40.7186
          ],
          "type": "Point"
      }
    },{
      "type": "Feature",
      "properties": {
        "kind": "beacon",
        "name": "BB516"
      },
      "geometry": {
        "coordinates": [
           49.6011,
           40.1292
          ],
          "type": "Point"
      }
    },{
      "type": "Feature",
      "properties": {
        "kind": "beacon",
        "name": "BDR"
      },
      "geometry": {
        "coordinates": [
           27.6814,
           37.2469
          ],
          "type": "Point"
      }
    },{
      "type": "Feature",
      "properties": {
        "kind": "beacon",
        "name": "BDRXD"
      },
      "geometry": {
        "coordinates": [
           27.6492,
           37.255
          ],
          "type": "Point"
      }
    },{
      "type": "Feature",
      "properties": {
        "kind": "beacon",
        "name": "BEBOT"
      },
      "geometry": {
        "coordinates": [
           37.2472,
           43.0894
          ],
          "type": "Point"
      }
    },{
      "type": "Feature",
      "properties": {
        "kind": "beacon",
        "name": "BEBRI"
      },
      "geometry": {
        "coordinates": [
           47.1472,
           40.1647
          ],
          "type": "Point"
      }
    },{
      "type": "Feature",
      "properties": {
        "kind": "beacon",
        "name": "BEDOP"
      },
      "geometry": {
        "coordinates": [
           32.2325,
           41.9269
          ],
          "type": "Point"
      }
    },{
      "type": "Feature",
      "properties": {
        "kind": "beacon",
        "name": "BEGAL"
      },
      "geometry": {
        "coordinates": [
           25.7719,
           44.6006
          ],
          "type": "Point"
      }
    },{
      "type": "Feature",
      "properties": {
        "kind": "beacon",
        "name": "BEKIR"
      },
      "geometry": {
        "coordinates": [
           47.8883,
           41.0583
          ],
          "type": "Point"
      }
    },{
      "type": "Feature",
      "properties": {
        "kind": "beacon",
        "name": "BEKIS"
      },
      "geometry": {
        "coordinates": [
           36.9883,
           43.1381
          ],
          "type": "Point"
      }
    },{
      "type": "Feature",
      "properties": {
        "kind": "beacon",
        "name": "BEKVA"
      },
      "geometry": {
        "coordinates": [
           21.695,
           40.9344
          ],
          "type": "Point"
      }
    },{
      "type": "Feature",
      "properties": {
        "kind": "beacon",
        "name": "BELGI"
      },
      "geometry": {
        "coordinates": [
           25.8833,
           40.5
          ],
          "type": "Point"
      }
    },{
      "type": "Feature",
      "properties": {
        "kind": "beacon",
        "name": "BELNI"
      },
      "geometry": {
        "coordinates": [
           45.9203,
           43.9197
          ],
          "type": "Point"
      }
    },{
      "type": "Feature",
      "properties": {
        "kind": "beacon",
        "name": "BELSU"
      },
      "geometry": {
        "coordinates": [
           34.2864,
           39.1308
          ],
          "type": "Point"
      }
    },{
      "type": "Feature",
      "properties": {
        "kind": "beacon",
        "name": "BEMTO"
      },
      "geometry": {
        "coordinates": [
           42.3883,
           45.2517
          ],
          "type": "Point"
      }
    },{
      "type": "Feature",
      "properties": {
        "kind": "beacon",
        "name": "BENEM"
      },
      "geometry": {
        "coordinates": [
           29.3167,
           36.1833
          ],
          "type": "Point"
      }
    },{
      "type": "Feature",
      "properties": {
        "kind": "beacon",
        "name": "BENGO"
      },
      "geometry": {
        "coordinates": [
           22.9669,
           42.7225
          ],
          "type": "Point"
      }
    },{
      "type": "Feature",
      "properties": {
        "kind": "beacon",
        "name": "BENTA"
      },
      "geometry": {
        "coordinates": [
           33.9558,
           40.1514
          ],
          "type": "Point"
      }
    },{
      "type": "Feature",
      "properties": {
        "kind": "beacon",
        "name": "BEPES"
      },
      "geometry": {
        "coordinates": [
           28.3222,
           45.3481
          ],
          "type": "Point"
      }
    },{
      "type": "Feature",
      "properties": {
        "kind": "beacon",
        "name": "BEPTO"
      },
      "geometry": {
        "coordinates": [
           32.0533,
           36.2697
          ],
          "type": "Point"
      }
    },{
      "type": "Feature",
      "properties": {
        "kind": "beacon",
        "name": "BERAP"
      },
      "geometry": {
        "coordinates": [
           21.6306,
           37.4111
          ],
          "type": "Point"
      }
    },{
      "type": "Feature",
      "properties": {
        "kind": "beacon",
        "name": "BERGO"
      },
      "geometry": {
        "coordinates": [
           27.1328,
           38.9989
          ],
          "type": "Point"
      }
    },{
      "type": "Feature",
      "properties": {
        "kind": "beacon",
        "name": "BERTU"
      },
      "geometry": {
        "coordinates": [
           32.2367,
           45.81
          ],
          "type": "Point"
      }
    },{
      "type": "Feature",
      "properties": {
        "kind": "beacon",
        "name": "BESES"
      },
      "geometry": {
        "coordinates": [
           28.2761,
           36.3311
          ],
          "type": "Point"
      }
    },{
      "type": "Feature",
      "properties": {
        "kind": "beacon",
        "name": "BESLI"
      },
      "geometry": {
        "coordinates": [
           24.0342,
           43.4022
          ],
          "type": "Point"
      }
    },{
      "type": "Feature",
      "properties": {
        "kind": "beacon",
        "name": "BETEG"
      },
      "geometry": {
        "coordinates": [
           36.3833,
           45.1833
          ],
          "type": "Point"
      }
    },{
      "type": "Feature",
      "properties": {
        "kind": "beacon",
        "name": "BETIZ"
      },
      "geometry": {
        "coordinates": [
           29.3586,
           41.6533
          ],
          "type": "Point"
      }
    },{
      "type": "Feature",
      "properties": {
        "kind": "beacon",
        "name": "BETOR"
      },
      "geometry": {
        "coordinates": [
           48.4403,
           43.8681
          ],
          "type": "Point"
      }
    },{
      "type": "Feature",
      "properties": {
        "kind": "beacon",
        "name": "BEYAZ"
      },
      "geometry": {
        "coordinates": [
           42.7881,
           38.505
          ],
          "type": "Point"
      }
    },{
      "type": "Feature",
      "properties": {
        "kind": "beacon",
        "name": "BGD"
      },
      "geometry": {
        "coordinates": [
           44.2553,
           33.2844
          ],
          "type": "Point"
      }
    },{
      "type": "Feature",
      "properties": {
        "kind": "beacon",
        "name": "BGS"
      },
      "geometry": {
        "coordinates": [
           27.4986,
           42.5531
          ],
          "type": "Point"
      }
    },{
      "type": "Feature",
      "properties": {
        "kind": "beacon",
        "name": "BH310"
      },
      "geometry": {
        "coordinates": [
           26.52,
           40.2183
          ],
          "type": "Point"
      }
    },{
      "type": "Feature",
      "properties": {
        "kind": "beacon",
        "name": "BIBAM"
      },
      "geometry": {
        "coordinates": [
           28.4011,
           40.8728
          ],
          "type": "Point"
      }
    },{
      "type": "Feature",
      "properties": {
        "kind": "beacon",
        "name": "BIFOK"
      },
      "geometry": {
        "coordinates": [
           26.2864,
           38.9719
          ],
          "type": "Point"
      }
    },